citylist,country,lat,lon,temp,temp_max,cloudiness,humidity,windspeed,date
Lebu,CL,-37.6167,-73.65,17.99,17.99,1,73,4.52,1614967499
Dunedin,NZ,-45.8742,170.5036,9.96,9.96,97,81,2.14,1614967500
Rikitea,PF,-23.1203,-134.9692,26.73,26.73,3,80,4.13,1614968031
Richards Bay,ZA,-28.783,32.0377,23.52,23.52,82,89,4.27,1614967853
Capão da Canoa,BR,-29.7456,-50.0097,26.64,26.64,77,69,6.35,1614968035
Kaitangata,NZ,-46.2817,169.8464,7.96,7.96,91,91,2.59,1614968036
Port Moresby,PG,-9.4431,147.1797,24.0,24.0,40,94,2.57,1614968036
Ushuaia,AR,-54.8,-68.3,15.0,15.0,40,44,6.69,1614968037
Jaciara,BR,-15.9653,-54.9683,28.01,28.01,90,83,2.99,1614968037
Port Elizabeth,ZA,-33.918,25.5701,19.0,19.0,0,88,1.54,1614967931
Busselton,AU,-33.65,115.3333,18.54,18.89,37,98,2.88,1614968039
Cidreira,BR,-30.1811,-50.2056,25.32,25.32,95,81,5.73,1614968040
Cape Town,ZA,-33.9258,18.4232,20.6,22.78,0,77,7.2,1614967842
Mar del Plata,AR,-38.0023,-57.5575,18.34,19.0,75,59,5.66,1614967744
Mataura,NZ,-46.1927,168.8643,6.67,6.67,75,84,1.25,1614968042
Hobart,AU,-42.8794,147.3294,12.0,12.0,90,62,4.63,1614967944
Punta Arenas,CL,-53.15,-70.9167,16.83,17.0,0,42,9.26,1614968043
Hithadhoo,MV,-0.6,73.0833,28.86,28.86,10,65,2.96,1614968044
Port Alfred,ZA,-33.5906,26.891,20.0,20.0,3,90,4.91,1614968046
Puerto Ayora,EC,-0.7393,-90.3518,28.59,29.0,20,79,5.14,1614968047
Sorong,ID,-0.8833,131.25,26.65,26.65,100,81,3.67,1614968048
Atuona,PF,-9.8,-139.0333,26.22,26.22,91,75,6.79,1614968050
Amahai,ID,-3.3333,128.9167,25.56,25.56,99,80,2.52,1614968051
Airai,TL,-8.9266,125.4092,15.59,15.59,15,100,0.13,1614968052
Mweka,CD,-4.85,21.5667,26.55,26.55,79,61,0.35,1614968052
Carnarvon,AU,-24.8667,113.6333,24.0,24.0,0,94,6.17,1614967877
Ancud,CL,-41.8697,-73.8203,24.21,25.0,0,31,3.09,1614968057
Ambovombe,MG,-25.1667,46.0833,24.76,24.76,4,86,3.77,1614968057
Alofi,NU,-19.0595,-169.9187,23.0,23.0,100,100,1.03,1614968060
Hervey Bay,AU,-25.2986,152.8535,20.56,20.56,2,84,3.79,1614968060
Vaini,TO,-21.2,-175.2,25.0,25.0,75,100,2.06,1614968063
Hermanus,ZA,-34.4187,19.2345,21.11,21.11,0,74,2.68,1614968066
Howard Springs,AU,-12.497,131.047,27.26,28.0,40,83,3.09,1614968066
East London,ZA,-33.0153,27.9116,20.0,20.0,0,83,2.06,1614968068
Beira,MZ,-19.8436,34.8389,27.39,27.78,20,89,3.09,1614968070
Bluff,NZ,-46.6,168.3333,6.67,6.67,60,84,6.46,1614968072
Paciran,ID,-6.8767,112.3761,26.26,26.26,100,82,3.1,1614968077
Liwale,TZ,-9.7667,37.9333,22.8,22.8,98,92,0.76,1614968078
Saldanha,ZA,-33.0117,17.9442,23.0,23.0,0,46,2.06,1614968080
Machalí,CL,-34.1833,-70.6667,25.0,25.0,7,53,4.12,1614968085
Quatre Cocos,MU,-20.2078,57.7625,25.0,25.0,20,83,3.09,1614968086
Esperance,AU,-33.8667,121.9,19.0,19.0,90,100,3.09,1614968087
Luebo,CD,-5.35,21.4167,26.57,26.57,68,68,1.09,1614968088
Tuatapere,NZ,-46.1333,167.6833,6.67,6.67,97,85,3.47,1614968089
Cabedelo,BR,-6.9811,-34.8339,29.0,29.0,75,74,6.17,1614968090
Kalemie,CD,-5.9475,29.1947,23.2,23.2,82,83,2.62,1614968090
Departamento de Maldonado,UY,-34.6667,-54.9167,22.62,23.0,75,56,8.23,1614968093
Ilhabela,BR,-23.7781,-45.3581,29.56,29.56,69,61,1.06,1614968093
Honiara,SB,-9.4333,159.95,25.72,25.72,99,83,1.39,1614968094
Beloha,MG,-25.1667,45.05,23.96,23.96,10,87,3.04,1614968095
Simpang,ID,-1.2667,104.0833,24.2,24.2,93,96,0.8,1614968096
New Norfolk,AU,-42.7826,147.0587,12.0,12.0,90,62,4.63,1614968097
Avarua,CK,-21.2078,-159.775,25.0,25.0,40,100,1.03,1614968098
Kieta,PG,-6.2167,155.6333,26.44,26.44,98,81,2.87,1614968098
Kavieng,PG,-2.5744,150.7967,28.13,28.13,96,77,4.04,1614968099
Nhulunbuy,AU,-12.2333,136.7667,28.0,28.0,75,89,3.6,1614968102
Thabazimbi,ZA,-24.5917,27.4116,24.37,24.37,57,44,0.91,1614968103
San Isidro,PE,-12.1167,-77.05,27.0,27.0,0,61,6.17,1614968104
Banjar,ID,-8.19,114.9675,26.0,26.0,20,89,1.03,1614968107
Bambanglipuro,ID,-7.95,110.2833,25.3,25.3,88,81,1.17,1614968108
Henties Bay,NA,-22.116,14.2845,22.2,22.2,0,59,4.94,1614968109
Bredasdorp,ZA,-34.5322,20.0403,20.0,20.0,0,83,4.12,1614968112
Alice Springs,AU,-23.7,133.8833,19.0,19.0,1,20,1.54,1614968153
Soe,ID,-9.8607,124.284,18.55,18.55,25,100,1.18,1614968154
São João da Barra,BR,-21.6403,-41.0511,34.0,34.0,0,40,4.12,1614968154
Bengkulu,ID,-3.8004,102.2655,25.02,25.02,100,88,1.76,1614968155
Mount Gambier,AU,-37.8333,140.7667,12.0,12.0,90,71,6.17,1614968157
Firminópolis,BR,-16.5819,-50.305,24.8,24.8,84,84,3.99,1614968159
Vila Velha,BR,-20.3297,-40.2925,30.36,31.11,0,62,9.26,1614967965
Matadi,CD,-5.8167,13.45,27.1,27.1,63,79,1.16,1614968164
Chui,UY,-33.6971,-53.4616,23.79,23.79,3,71,6.96,1614968167
Coquimbo,CL,-29.9533,-71.3436,20.0,20.0,75,73,3.09,1614968167
San Luis,AR,-33.295,-66.3356,31.79,31.79,18,27,2.37,1614968168
Cap Malheureux,MU,-19.9842,57.6142,25.0,25.0,20,83,3.09,1614968172
Sungai Penuh,ID,-2.0833,101.3833,18.25,18.25,100,93,1.2,1614968174
Souillac,MU,-20.5167,57.5167,25.0,25.0,20,83,3.09,1614968175
Vredendal,ZA,-31.6683,18.5012,19.36,19.36,0,61,3.73,1614968176
Pandamatenga,BW,-18.5278,25.627,19.66,19.66,11,64,0.39,1614968176
Mathathane,BW,-22.2687,28.7495,30.0,30.0,18,33,3.84,1614968176
Neiafu,TO,-18.65,-173.9833,22.0,22.0,75,94,1.23,1614968177
Saint-Philippe,RE,-21.3585,55.7679,24.31,27.0,100,78,1.54,1614968179
Hualmay,PE,-11.0964,-77.6139,25.66,25.66,93,61,4.55,1614968181
Ambatofinandrahana,MG,-20.55,46.8,16.9,16.9,100,97,2.64,1614968182
Itarema,BR,-2.9248,-39.9167,29.9,29.9,63,65,7.69,1614968183
Alto Araguaia,BR,-17.3147,-53.2153,26.56,26.56,69,74,4.45,1614968184
Poum,NC,-20.2333,164.0167,27.81,27.81,95,82,17.86,1614968186
Mossamedes,AO,-15.1961,12.1522,24.15,24.15,21,81,2.73,1614968187
Geraldton,AU,-28.7667,114.6,20.0,20.0,75,88,3.09,1614968187
Lorengau,PG,-2.0226,147.2712,27.66,27.66,57,78,4.78,1614968188
Te Anau,NZ,-45.4167,167.7167,6.58,6.58,30,88,1.46,1614968191
Bairnsdale,AU,-37.8333,147.6167,9.03,9.03,25,83,2.85,1614968140
Bambous Virieux,MU,-20.3428,57.7575,25.0,25.0,20,83,3.09,1614968195
Ahipara,NZ,-35.1667,173.1667,15.31,15.31,30,83,2.74,1614968196
Namatanai,PG,-3.6667,152.4333,26.15,26.15,98,82,1.34,1614968197
Mahébourg,MU,-20.4081,57.7,25.0,25.0,20,83,3.09,1614968199
Port Macquarie,AU,-31.4333,152.9167,18.32,18.89,100,86,0.45,1614968074
Tual,ID,-5.6667,132.75,28.37,28.37,69,75,5.71,1614968202
Palmas,BR,-10.2128,-48.3603,32.0,32.0,40,51,1.54,1614968204
Mareeba,AU,-17.0,145.4333,22.64,24.0,40,94,0.69,1614968205
Rawson,AR,-43.3002,-65.1023,24.77,24.77,12,44,11.05,1614968205
Arraial do Cabo,BR,-22.9661,-42.0278,32.68,35.0,20,58,5.14,1614968208
Werda,BW,-25.2667,23.2833,26.92,26.92,41,28,0.57,1614968208
Uauá,BR,-9.8414,-39.4817,35.8,35.8,8,23,5.1,1614968209
Tiarei,PF,-17.5333,-149.3333,25.0,25.0,90,88,1.54,1614968210
Sola,VU,-13.8833,167.55,27.78,27.78,100,84,10.2,1614968212
Beroroha,MG,-21.6667,45.1667,23.64,23.64,100,85,1.02,1614968214
Charters Towers,AU,-20.1,146.2667,21.5,21.5,15,88,2.72,1614968214
Ariquemes,BR,-9.9133,-63.0408,26.5,26.5,100,87,1.6,1614968215
Lüderitz,NA,-26.6481,15.1594,22.32,22.32,0,48,6.81,1614968218
Faanui,PF,-16.4833,-151.75,28.3,28.3,100,74,6.93,1614968219
Carauari,BR,-4.8828,-66.8958,27.97,27.97,93,69,1.9,1614968219
Kununurra,AU,-15.7667,128.7333,24.0,24.0,75,72,6.17,1614968221
Coyhaique,CL,-45.5752,-72.0662,27.0,27.0,0,17,2.06,1614968222
Moroni,KM,-11.7022,43.2551,27.68,27.68,100,77,6.91,1614968224
Lufilufi,WS,-13.8745,-171.5986,24.0,24.0,20,94,6.58,1614968226
San Vicente,AR,-26.6167,-54.1333,24.82,24.82,82,77,1.56,1614968229
Manggar,ID,-2.8833,108.2667,25.73,25.73,24,83,2.53,1614968229
Chake Chake,TZ,-5.2459,39.7666,27.19,27.19,100,70,6.97,1614968230
San Juan,AR,-31.5375,-68.5364,32.77,32.77,1,28,2.86,1614968230
Daru,PG,-9.0763,143.2092,24.94,24.94,77,88,3.64,1614968230
Opotiki,NZ,-38.0833,177.2833,11.67,11.67,56,98,0.87,1614968231
Antalaha,MG,-14.9003,50.2788,25.88,25.88,84,88,1.08,1614968231
Sinazongwe,ZM,-17.2614,27.4618,25.4,25.4,0,60,1.6,1614968235
Port Shepstone,ZA,-30.7414,30.455,23.29,23.29,88,75,6.46,1614968275
Mazagão,BR,-0.115,-51.2894,28.0,28.0,90,78,2.57,1614968275
Constitución,CL,-35.3333,-72.4167,18.82,18.82,8,70,3.71,1614968276
Mkushi,ZM,-13.6202,29.3939,19.44,19.44,100,93,1.57,1614968278
São Gabriel da Cachoeira,BR,-0.1303,-67.0892,30.0,30.0,40,70,4.12,1614968278
Castro,BR,-24.7911,-50.0119,19.47,19.47,100,93,4.13,1614968279
Rurrenabaque,BO,-14.4413,-67.5278,27.99,27.99,100,77,1.44,1614968280
Pisco,PE,-13.7,-76.2167,26.37,27.0,0,74,4.63,1614968283
Ritchie,ZA,-29.038,24.6028,23.0,23.0,0,28,3.6,1614968284
Sumbe,AO,-11.2061,13.8437,26.62,26.62,56,81,4.06,1614968284
Caucayá,CO,-0.1934,-74.7819,31.45,31.45,55,58,1.07,1614968289
Chipinge,ZW,-20.1883,32.6236,16.31,16.31,1,87,1.51,1614968289
Paracuru,BR,-3.41,-39.0306,28.33,28.33,84,72,8.94,1614968143
Vao,NC,-22.6667,167.4833,24.46,24.46,100,94,5.64,1614968290
Calama,CL,-22.4667,-68.9333,22.0,22.0,40,40,10.29,1614968291
Kaeo,NZ,-35.1,173.7833,11.67,11.67,25,93,0.45,1614968292
Corowa,AU,-36.0333,146.3833,8.89,8.89,0,71,2.36,1614968295
Majene,ID,-3.5403,118.9707,26.0,26.0,100,75,2.09,1614968296
Iquitos,PE,-3.7481,-73.2472,28.0,28.0,40,78,3.6,1614968297
Ijuí,BR,-28.3878,-53.9147,27.0,27.0,40,69,6.17,1614968303
Faxinal,BR,-24.0003,-51.3194,21.66,21.66,99,91,4.09,1614968304
Codrington,AU,-38.2667,141.9667,11.05,11.05,58,84,4.56,1614968308
Soyo,AO,-6.1349,12.3689,27.5,27.5,30,87,5.44,1614968308
Yulara,AU,-25.2406,130.9889,25.0,25.0,17,27,2.06,1614968308
Port-Gentil,GA,-0.7193,8.7815,28.0,28.0,75,83,7.2,1614968312
Valparaíso,CL,-33.0393,-71.6273,17.84,19.0,90,100,5.14,1614968175
Ulladulla,AU,-35.35,150.4667,14.36,16.11,90,63,3.6,1614968315
Broken Hill,AU,-31.95,141.4333,18.0,18.0,0,36,4.12,1614968316
Neuquén,AR,-38.9516,-68.0591,23.0,23.0,40,60,4.12,1614968251
Guiratinga,BR,-16.3494,-53.7583,26.97,26.97,76,72,2.91,1614968320
Kirakira,SB,-10.4544,161.9205,27.11,27.11,100,82,5.77,1614968324
Waipawa,NZ,-41.4122,175.5153,16.53,17.22,75,88,11.32,1614968324
Inhambane,MZ,-23.865,35.3833,27.4,27.78,20,78,2.06,1614968326
Vallenar,CL,-28.5708,-70.7581,29.7,29.7,10,27,5.17,1614968327
Rocha,UY,-34.4833,-54.3333,21.19,21.19,47,69,6.44,1614968329
Rundu,NA,-17.9333,19.7667,21.34,21.34,50,56,1.13,1614968330
Unaí,BR,-16.3575,-46.9061,30.06,30.06,32,56,1.41,1614968330
Poconé,BR,-16.2567,-56.6228,30.58,30.58,83,65,1.71,1614968333
Touros,BR,-5.1989,-35.4608,30.0,30.0,40,66,6.17,1614968333
Camabatela,AO,-8.1881,15.375,18.87,18.87,76,91,0.53,1614968338
Nabire,ID,-3.3667,135.4833,23.69,23.69,100,93,1.47,1614968339
Boyolangu,ID,-8.1181,111.8935,24.37,24.37,100,85,1.55,1614968339
Aripuanã,BR,-9.1667,-60.6333,27.39,27.39,87,89,1.38,1614968341
Amuntai,ID,-2.4177,115.2494,23.59,23.59,81,90,1.06,1614968343
Innisfail,AU,-17.5333,146.0333,23.69,23.69,100,88,1.38,1614968344
Imbituba,BR,-28.24,-48.6703,27.0,27.0,75,78,5.14,1614968347
